{
 "1965 PRATT BOULEVARD ELK GROVE VILLAGE 60007 USA": {
  "lat": 41.9981609,
  "lon": -87.9584288,
  "display": "1965, Pratt Boulevard, O'Hare, Elk Grove Village, Elk Grove Township, Cook County, Illinois, 60007, United States",
  "city": "Elk Grove Village",
  "state": "Illinois",
  "country": "US"
 },
 "2902, NW 32ND AVE MIAMI": {
  "lat": 25.8029149,
  "lon": -80.2489065,
  "display": "2902, Northwest 32nd Avenue, All Star 36 Street Mobile Home Park, Miami, Miami-Dade County, Florida, 33142, United States",
  "city": "Miami",
  "state": "Florida",
  "country": "US"
 },
 "1940 ARGENTIA ROAD, MISSISSAUGA ON L5N 1P9 CA": {
  "lat": 43.6009127,
  "lon": -79.7378024,
  "display": "Walmart Home Office, 1940, Argentia Road, Meadowvale Business Park, Mississauga, Peel Region, Golden Horseshoe, Ontario, L5N 1P9, Canada",
  "city": "Mississauga",
  "state": "Ontario",
  "country": "CA"
 },
 "5430, LYNDON B JOHNSON FWY DALLAS": {
  "lat": 32.9223968,
  "lon": -96.8177069,
  "display": "5430, Lyndon B Johnson Freeway, Inwood, Dallas, Dallas County, Texas, 75244, United States",
  "city": "Dallas",
  "state": "Texas",
  "country": "US"
 },
 "1974 MIDWAY LANE SMYRNA TN 37167 US": {
  "lat": 35.9306673,
  "lon": -86.5395319,
  "display": "Nissan Trading Corporation Americas, 1974, Midway Lane, SouthPark Distribution Center, Quail Ridge, Smyrna, Rutherford County, Middle Tennessee, Tennessee, 37167, United States",
  "city": "Smyrna",
  "state": "Tennessee",
  "country": "US"
 },
 "260 N. GREENWOOD STREET HOUSTON, TEXAS UNITED STATES OF AMERICA": {
  "lat": 29.7459405,
  "lon": -95.3136892,
  "display": "260, North Greenwood Street, Second Ward, Houston, Harris County, Texas, 77011, United States",
  "city": "Houston",
  "state": "Texas",
  "country": "US"
 },
 "1744 ENCLAVE GREEN CV GERMANTOWN TN 38139 UNITED STATES": {
  "lat": 35.1005228,
  "lon": -89.7548318,
  "display": "1744, Enclave Green Cove, Germantown, Shelby County, West Tennessee, Tennessee, 38139, United States",
  "city": "Germantown",
  "state": "Tennessee",
  "country": "US"
 },
 "2, COLONY ROAD JERSEY CITY 07305 US": {
  "lat": 40.6777584,
  "lon": -74.0833306,
  "display": "Interglobo North America, 2, Colony Road, Jersey City, Hudson County, New Jersey, 07305, United States",
  "city": "Jersey City",
  "state": "New Jersey",
  "country": "US"
 },
 "526 PYLON DR RALEIGH, NC US": {
  "lat": 35.7927761,
  "lon": -78.701648,
  "display": "526, Pylon Drive, Method, Raleigh, Wake County, North Carolina, 27606, United States",
  "city": "Raleigh",
  "state": "North Carolina",
  "country": "US"
 },
 "12301 KURLAND DR. HOUSTON (TX) UNITED STATES": {
  "lat": 29.613481,
  "lon": -95.212414,
  "display": "12301, Kurland Drive, Houston, Harris County, Texas, 77034, United States",
  "city": "Houston",
  "state": "Texas",
  "country": "US"
 },
 "ST STREET URBANDALE IA 50323 US": {
  "lat": 41.6406975,
  "lon": -93.8328478,
  "display": "155th Street, Walnut Grove, Urbandale, Walnut Township, Dallas County, Iowa, 50323, United States",
  "city": "Urbandale",
  "state": "Iowa",
  "country": "US"
 },
 "2720 FALLON DRIVE SHERMAN TX 75090 UNITED STATES": {
  "lat": 33.68772,
  "lon": -96.5778519,
  "display": "2720, Fallon Drive, Sherman, Grayson County, Texas, 75090, United States",
  "city": "Sherman",
  "state": "Texas",
  "country": "US"
 },
 "4600 WEST DICKMAN ROAD, BATTLE CREEK, MI, 49037": {
  "lat": 42.33401,
  "lon": -85.271159,
  "display": "4600, West Dickman Road, Battle Creek, Calhoun County, Michigan, 49037, United States",
  "city": "Battle Creek",
  "state": "Michigan",
  "country": "US"
 },
 "860 DEVON AVENUE BENSENVILLE IL 60106 UNITED STATES": {
  "lat": 41.9932139,
  "lon": -87.9520043,
  "display": "860, Devon Avenue, Bensenville, Elk Grove Township, Cook County, Illinois, 60106, United States",
  "city": "Bensenville",
  "state": "Illinois",
  "country": "US"
 },
 "3602 NORTH PERKINS ROAD, STILLWATER, OK 74075, UNITED STATES": {
  "lat": 36.1380542,
  "lon": -97.0515564,
  "display": "North Perkins Road, Stillwater, Payne County, Oklahoma, 74075, United States",
  "city": "Stillwater",
  "state": "Oklahoma",
  "country": "US"
 },
 "631 N. CLUFF AVE. LODI LODI CA 95240 UNITED STATES": {
  "lat": 38.1416568,
  "lon": -121.2524817,
  "display": "631, North Cluff Avenue, Robert Mondavi by Woodbridge, Lodi, San Joaquin County, California, 95240, United States",
  "city": "Lodi",
  "state": "California",
  "country": "US"
 },
 "5650 GRACE PL COMMERCE CA US": {
  "lat": 34.0168445,
  "lon": -118.1490109,
  "display": "5650, Grace Place, Commerce, Los Angeles County, California, 90022, United States",
  "city": "Commerce",
  "state": "California",
  "country": "US"
 },
 "29 WINDSOR POND ROAD WEST WINDSOR, NJ 08550 USA": {
  "lat": 40.2840593,
  "lon": -74.6548716,
  "display": "29, Windsor Pond Road, West Windsor, Mercer County, New Jersey, 08550, United States",
  "city": "West Windsor",
  "state": "New Jersey",
  "country": "US"
 },
 "12955 W AIRPORT BLVD SUGAR LAND TX US": {
  "lat": 29.6458929,
  "lon": -95.6103478,
  "display": "12955, West Airport Boulevard, Sugar Land, Fort Bend County, Texas, 77478, United States",
  "city": "Sugar Land",
  "state": "Texas",
  "country": "US"
 },
 "245 W.COMMERCIAL AVE, MOONACHIE, NJ 07074 UNITED STATES": {
  "lat": 40.8357982,
  "lon": -74.0670658,
  "display": "245, West Commercial Avenue, Moonachie, Bergen County, New Jersey, 07074, United States",
  "city": "Moonachie",
  "state": "New Jersey",
  "country": "US"
 },
 "720 S. HILLVIEW DRIVE MILPITAS CA 95035 US": {
  "lat": 37.425107,
  "lon": -121.8909542,
  "display": "Philips & Lite-on Digital Solutions Inc., 720, South Hillview Drive, Milpitas, Santa Clara County, California, 95035, United States",
  "city": "Milpitas",
  "state": "California",
  "country": "US"
 },
 "1207 EDEN RD YORK PA 17402 US": {
  "lat": 39.9815595,
  "lon": -76.7191862,
  "display": "1207, Eden Road, Pleasureville, Springettsbury Township, York County, Pennsylvania, 17402, United States",
  "city": "Springettsbury Township",
  "state": "Pennsylvania",
  "country": "US"
 },
 "MAMARONECK AVENUE 500 HARRISON NY 10528 UNITED STATES": {
  "lat": 40.9770766,
  "lon": -73.7420223,
  "display": "500, Mamaroneck Avenue, Town/Village of Harrison, Westchester County, New York, 10528, United States",
  "city": "Town/Village of Harrison",
  "state": "New York",
  "country": "US"
 },
 "35, WATERTORENSTRAAT OLEN VAN 2250 BELGIUM": {
  "lat": 51.1778599,
  "lon": 4.8809403,
  "display": "35, Watertorenstraat, Olen, Turnhout, Antwerpen, Vlaanderen, 2250, Belgi\u00eb / Belgique / Belgien",
  "city": "Olen",
  "state": "Antwerpen",
  "country": "BE"
 },
 "3555 DONMILLS ROADUNIT 18 828 TORONTO, ONTARIO M2H3N3 T: F: TE E: INFO DBSHIPPING.COM": null,
 "ONTARIO, CA, USA": {
  "lat": 34.065846,
  "lon": -117.64843,
  "display": "Ontario, San Bernardino County, California, United States",
  "city": "Ontario",
  "state": "California",
  "country": "US"
 },
 "1965 PRATT BOULEVARD ELKGROVE VILLAGE 60007 USA": null,
 "60007, USA": {
  "lat": 42.0004691,
  "lon": -88.0228575,
  "display": "60007, Elk Grove Township, Cook County, Illinois, United States",
  "city": "",
  "state": "Illinois",
  "country": "US"
 },
 "17800 CASTLETON STREET STE #265 CITYOF INDUSTRY, CACA 91748 US": null,
 "17800, USA": {
  "lat": 47.7160976,
  "lon": -122.3340284,
  "display": "Meridian Ave N & N 120th St, Meridian Avenue North, Haller Lake, Seattle, King County, Washington, 98133, United States",
  "city": "Seattle",
  "state": "Washington",
  "country": "US"
 },
 "2902, NW 32ND AVEMIAMI": null,
 "MIAMI, FL, USA": {
  "lat": 25.7741566,
  "lon": -80.1935973,
  "display": "Miami, Miami-Dade County, Florida, United States",
  "city": "Miami",
  "state": "Florida",
  "country": "US"
 },
 "3059 TOWNSGATE ROAD, SUITE 400, WESTLAKE VILLAGE WESTLAKE CA 91361 US": null,
 "91361, CA, USA": {
  "lat": 34.1511642,
  "lon": -118.8486446,
  "display": "91361, Thousand Oaks, Ventura County, California, United States",
  "city": "Thousand Oaks",
  "state": "California",
  "country": "US"
 },
 "20275 BUSINESS PKWY, CITYOF INDUST RY, CATE T: F:": null,
 "20275, USA": {
  "lat": 40.6844129,
  "lon": -74.1041112,
  "display": "Avenue C at 51st Street, West 51st Street, Bayonne, Hudson County, New Jersey, 07002, United States",
  "city": "Bayonne",
  "state": "New Jersey",
  "country": "US"
 },
 "AVENUE,N.E BUILDINGF BELL EVUEWA 98007 US": null,
 "98007, USA": {
  "lat": 47.6115784,
  "lon": -122.1432343,
  "display": "98007, Bellevue, King County, Washington, United States",
  "city": "Bellevue",
  "state": "Washington",
  "country": "US"
 },
 "1099 PRATT BOULEVARD,ELKGROVE VILLAGE, IL MWSEAIMPORTS@J ANELGROUP.COM": null,
 "14343 E. DON JULIAN ROADCITY OFIN DUSTRY, CA 91746 IMPORT@MONARCHLINE .COM": null,
 "91746, CA, USA": {
  "lat": 34.0482746,
  "lon": -117.9826987,
  "display": "91746, La Puente, Los Angeles County, California, United States",
  "city": "La Puente",
  "state": "California",
  "country": "US"
 },
 "CARR #2 KM 19.1, BO CANDELARIA, TOA (EXT.8227)": null,
 "365 CABELA DR. SUITE 300,VERDI,NEVADA 89439,US": null,
 "89439, USA": {
  "lat": 39.5175333,
  "lon": -119.9792424,
  "display": "89439, Reno, Washoe County, Nevada, United States",
  "city": "Reno",
  "state": "Nevada",
  "country": "US"
 },
 "19360 RINALDI ST. #665PORTER RANCH, CA :": null,
 "19360, USA": {
  "lat": 47.6699466,
  "lon": -122.387738,
  "display": "24th Avenue Northwest & Northwest 657th Street, 24th Avenue Northwest, Ballard, Seattle, King County, Washington, 98017, United States",
  "city": "Seattle",
  "state": "Washington",
  "country": "US"
 },
 "18351 COLIMA ROAD STE 2896 ROWLAND HEIGHTS, CA 91748,ROWLAND HEIGHTS, ,US": null,
 "91748, CA, USA": {
  "lat": 33.9826982,
  "lon": -117.8973673,
  "display": "91748, Los Angeles County, California, United States",
  "city": "",
  "state": "California",
  "country": "US"
 },
 "CS 12014 VOLUNTEER BLVD DOOR S29 MT.JULIET TN 37122 US": null,
 "12014, USA": {
  "lat": 41.7262289,
  "lon": -87.5727901,
  "display": "93rd Street & Clyde, East 93rd Street, Pill Hill, Calumet Heights, Chicago, Hyde Park Township, Cook County, Illinois, 60617, United States",
  "city": "Chicago",
  "state": "Illinois",
  "country": "US"
 },
 "TH STREET STE 2A FLUSHINGN Y 11367": null,
 "11367, USA": {
  "lat": 40.7289532,
  "lon": -73.8210008,
  "display": "11367, Queens, Queens County, New York, United States",
  "city": "New York",
  "state": "New York",
  "country": "US"
 },
 "100 IKEADRIVE WESTAMPTON 08060, UNITED STATES, USNJ": null,
 "08060, USA": {
  "lat": 39.9969896,
  "lon": -74.7724049,
  "display": "08060, Mount Holly Township, Burlington County, New Jersey, United States",
  "city": "Mount Holly Township",
  "state": "New Jersey",
  "country": "US"
 },
 "560 NACHES AVE SW RENTON, WA, 98057 UNITED STATES TET": null,
 "98057, USA": {
  "lat": 47.4788051,
  "lon": -122.2126921,
  "display": "98057, Renton, King County, Washington, United States",
  "city": "Renton",
  "state": "Washington",
  "country": "US"
 },
 "577 AIRPORT BLVD SUITE 800 BURLINGA ME,CA 94010 UNITED STATESR": null,
 "94010, CA, USA": {
  "lat": 37.5847492,
  "lon": -122.3559837,
  "display": "94010, Burlingame, San Mateo County, California, United States",
  "city": "Burlingame",
  "state": "California",
  "country": "US"
 },
 "1130 COMO STREET SOUTH, SULPHUR SPR INGS 75482 JORDAN": null,
 "75482, USA": {
  "lat": 33.1290226,
  "lon": -95.5999851,
  "display": "75482, Sulphur Springs, Hopkins County, Texas, United States",
  "city": "Sulphur Springs",
  "state": "Texas",
  "country": "US"
 },
 "6300 CHEMIN LOUIS-RIEL,BECANCOUR,QUEBEC G9H 2X5,CA": {
  "lat": 46.3449893,
  "lon": -72.3925555,
  "display": "Chemin Louis-Riel, B\u00e9cancour, B\u00e9cancour (MRC), Centre-du-Qu\u00e9bec, Qu\u00e9bec, G9H 2T7, Canada",
  "city": "B\u00e9cancour",
  "state": "Qu\u00e9bec",
  "country": "CA"
 },
 "150 SOUTHPORT RD SPARTANSBURG SC 29306 US": null,
 "29306, SC, USA": {
  "lat": 34.9204149,
  "lon": -81.9325146,
  "display": "29306, Spartanburg County, South Carolina, United States",
  "city": "",
  "state": "South Carolina",
  "country": "US"
 },
 "AMERICA 5180 CARGO DRIVE, COLUMBUS GEORGIA 31907 USA": null,
 "31907, USA": {
  "lat": 32.4816317,
  "lon": -84.9065247,
  "display": "31907, Columbus, Muscogee County, Georgia, United States",
  "city": "Columbus",
  "state": "Georgia",
  "country": "US"
 },
 "5430, LYNDONB JOHNSON FWY DALLAS": null,
 "DALLAS, TX, USA": {
  "lat": 32.7762719,
  "lon": -96.7968559,
  "display": "Dallas, Dallas County, Texas, United States",
  "city": "Dallas",
  "state": "Texas",
  "country": "US"
 },
 "SUMITOMO CORPORATION OF AMERICASRAI LROAD, CASTINGS AND FORGINGS9500W.B RYNMAWR AVENUE, SUITE 400ROSE": null,
 "7990 KILN DELISLE RDPASS CHRISTIAN MS MCCLAIN DAWN.M.MCCLAINCHEMOURS.COM": null,
 "CORPORATION 1979 MARCUS AVENUE, SUITE 220 LAKE SUCCES, NY 11042, UNITED STATES OFFICE /": null,
 "11042, NY, USA": {
  "lat": 40.7590342,
  "lon": -73.6943327,
  "display": "11042, Village of Lake Success, Town of North Hempstead, Nassau County, New York, United States",
  "city": "Village of Lake Success",
  "state": "New York",
  "country": "US"
 },
 "HOUSTON BRANCH 10777 WESTHEIMER ROAD #815 TE": null,
 "10777, USA": {
  "lat": 39.3670105,
  "lon": -76.5628747,
  "display": "10777, East Northern Parkway, Hamilton Hills, Hamilton, Baltimore, Maryland, 21214, United States",
  "city": "Baltimore",
  "state": "Maryland",
  "country": "US"
 },
 "7525 FINANCIAL DR BRAMPTON CA TE": null,
 "LLC 1098 FAIRVIEW AVENUE, BOWLING GREEN, OH 43402, USA A.BECHSTEIN@": null,
 "43402, OH, USA": {
  "lat": 41.3758357,
  "lon": -83.648371,
  "display": "43402, Bowling Green, Wood County, Ohio, United States",
  "city": "Bowling Green",
  "state": "Ohio",
  "country": "US"
 },
 "4701 CHUDOBA PARKWAY PRICE GEORGE, PRINCE GEORGE 23875 UNITED STATES": null,
 "23875, USA": {
  "lat": 37.2358934,
  "lon": -77.2849655,
  "display": "23875, Prince George County, Virginia, United States",
  "city": "",
  "state": "Virginia",
  "country": "US"
 },
 "10540 TALBERT AVE. SUITE 100 FOUNTAIN VALLEY, CAYANG": null,
 "10540, USA": {
  "lat": 41.3363846,
  "lon": -73.7251836,
  "display": "10540, Town of Somers, Westchester County, New York, United States",
  "city": "Town of Somers",
  "state": "New York",
  "country": "US"
 },
 "13849 MAGNOLIA AVENUE, CHINO ,CA 91 710,CA, 91710,US": null,
 "13849, USA": {
  "lat": 42.3396873,
  "lon": -75.3167769,
  "display": "13849, Town of Unadilla, Otsego County, New York, United States",
  "city": "Town of Unadilla",
  "state": "New York",
  "country": "US"
 },
 "1230 E. BIG BEAVER ROAD,TROY,MICHIG AN, 48083,US": null,
 "48083, USA": {
  "lat": 42.5503959,
  "lon": -83.1233197,
  "display": "48083, Troy, Oakland County, Michigan, United States",
  "city": "Troy",
  "state": "Michigan",
  "country": "US"
 },
 "SUITE WILKIE AVE HAWTHORNE CA 90250 UNITED STATES": null,
 "90250, CA, USA": {
  "lat": 33.9152774,
  "lon": -118.3506286,
  "display": "90250, Hawthorne, Los Angeles County, California, United States",
  "city": "Hawthorne",
  "state": "California",
  "country": "US"
 },
 "1055 DUNSMUIR ST. 32 FLR VANCOUVER, CA, V7X 1E6 TE": null,
 "EMILIO CARRANZA#1563 COL.TREVINO MONTERREY NL 64570 MX": null,
 "64570, USA": {
  "lat": 30.6972412,
  "lon": -88.1892334,
  "display": "University of South Alabama, 307, North University Boulevard, Mobile City Council District 7, Mobile, Mobile County, Alabama, 36688, United States",
  "city": "Mobile",
  "state": "Alabama",
  "country": "US"
 },
 "10330 PIONEER BLVD #100 & #160 SANTA FE SPRING CA 90670 OFFICE:": null,
 "90670, CA, USA": {
  "lat": 33.9476913,
  "lon": -118.0810361,
  "display": "90670, Santa Fe Springs, Los Angeles County, California, United States",
  "city": "Santa Fe Springs",
  "state": "California",
  "country": "US"
 },
 "284 CALLEB INDUSTRIAL LUCHETTI BAYAMON - PUERTO RICO": null,
 "300 FRANKW BURR BLVD. SUITE 23TE ANECK, NJ 07666 U.S.A": null,
 "07666, NJ, USA": {
  "lat": 40.890411,
  "lon": -74.012361,
  "display": "07666, Teaneck Township, Bergen County, New Jersey, United States",
  "city": "Teaneck Township",
  "state": "New Jersey",
  "country": "US"
 },
 "2905 LUCERNE DR SEGRAND RAPIDS MI 49546 UNITED STATES U.S.A": null,
 "49546, MI, USA": {
  "lat": 42.9290398,
  "lon": -85.554016,
  "display": "49546, Kentwood, Kent County, Michigan, United States",
  "city": "Kentwood",
  "state": "Michigan",
  "country": "US"
 },
 "SANROQUE 15, ZIPCODE: 12004, : ESA CASTELLON ES": null,
 "12004, USA": {
  "lat": 41.7280145,
  "lon": -87.5526628,
  "display": "Exchange & South Chicago, South Exchange Avenue, South Chicago, Chicago, Hyde Park Township, Cook County, Illinois, 60617, United States",
  "city": "Chicago",
  "state": "Illinois",
  "country": "US"
 },
 "CO. LTD. 1357 RIDGEWAY ST POMONA CA TEDEPT": null,
 "TUBE FITTINGS 704 WEST CUMBERLAND ST. LEWISBURG OH US": null,
 "12600 CARDINAL MEADOW SUGAR LAND, TX 77478 SUGAR LAND TX 77478 US": null,
 "77478, TX, USA": {
  "lat": 29.624264,
  "lon": -95.6226798,
  "display": "77478, Sugar Land, Fort Bend County, Texas, United States",
  "city": "Sugar Land",
  "state": "Texas",
  "country": "US"
 },
 "NORKEM HOUSE,BEXTON LANE KNUSTFORD, KNUTSFORD, CHESHIRE CHS WA16 9FB G TE B": null,
 "300 FALCON STREET WILMINGTON 90744 US": null,
 "90744, USA": {
  "lat": 33.7602584,
  "lon": -118.1111298,
  "display": "90744, Long Beach, Los Angeles County, California, United States",
  "city": "Long Beach",
  "state": "California",
  "country": "US"
 },
 "484 HICKS GROVE RD,MOORESBORO,NORTH CAROLINA 28114,US": null,
 "28114, USA": {
  "lat": 35.2380675,
  "lon": -81.7561288,
  "display": "28114, Rutherford County, North Carolina, United States",
  "city": "",
  "state": "North Carolina",
  "country": "US"
 },
 "NDAVE 2ND FL JAMAICA NY 11434 UNITED STATES": null,
 "11434, NY, USA": {
  "lat": 40.6773355,
  "lon": -73.7794403,
  "display": "11434, Queens, Queens County, New York, United States",
  "city": "New York",
  "state": "New York",
  "country": "US"
 },
 "33301 9TH AVESOUTH, SUITE 121 FEDERAL WAY WA 98003 UNITED STATES": null,
 "98003, WA, USA": {
  "lat": 47.3149973,
  "lon": -122.312229,
  "display": "98003, Federal Way, King County, Washington, United States",
  "city": "Federal Way",
  "state": "Washington",
  "country": "US"
 },
 "526 PYLON DR RALEIGH, NCUS": null,
 "19750 MAGELLAN DR. TORRANCECA 90502 US": null,
 "19750, USA": {
  "lat": 47.5399317,
  "lon": -122.3904579,
  "display": "Fauntleroy Way Southwest & Soutwest Myrtle Street, Fauntleroy Way Southwest, Morgan Junction, Seattle, King County, Washington, 98136, United States",
  "city": "Seattle",
  "state": "Washington",
  "country": "US"
 },
 "1357 RIDGEWAY STREET POMONA CA UNITED STATES TE 5983348": null,
 "RONNSKAR SMELTER, DISPATCH OFFICE CT: PETER ERIKSSON ( 910 77 SE 932 81 SKELLEFTEHAMN, SWEDEN": null,
 "NO. 2700 CARRIER AVENUE, COMMERCE, CALIFORNIA 90040 U.S.A. 90040 TE T: F:": null,
 "90040, USA": {
  "lat": 33.9931997,
  "lon": -118.1653045,
  "display": "90040, Bell, Los Angeles County, California, United States",
  "city": "Bell",
  "state": "California",
  "country": "US"
 },
 "ADDR: 1656 GERMANO WAY PLEASANTON, CA 94566 UNITED STATES /": null,
 "94566, CA, USA": {
  "lat": 37.6730612,
  "lon": -121.8768465,
  "display": "94566, Pleasanton, Alameda County, California, United States",
  "city": "Pleasanton",
  "state": "California",
  "country": "US"
 },
 "2400 CENTENNIAL DR ARLINGTON TX 76011 US X": null,
 "76011, TX, USA": {
  "lat": 32.7583056,
  "lon": -97.0880352,
  "display": "76011, Arlington, Tarrant County, Texas, United States",
  "city": "Arlington",
  "state": "Texas",
  "country": "US"
 },
 "11TH FLOOR, LOGISTICS DEPARTMENT 53 NASHVILLE TN 37214 UNITED STATES": null,
 "37214, TN, USA": {
  "lat": 36.1312945,
  "lon": -86.6756528,
  "display": "37214, Nashville, Davidson County, Middle Tennessee, Tennessee, United States",
  "city": "Nashville",
  "state": "Tennessee",
  "country": "US"
 },
 "173 ROUTE 526 ALLENTOWN NJ TE": null,
 "(NEW JERSEY OFFICE) 607 E PALISADES AVE, ENGLEWOOD CLIFFS, NJ": null,
 "SANJUAN INDUSTRIAL PARK, BUILDING A, ROAD #1, KM 25.3, QUEBRADA ARENAS WARDSAN JUAN PUERTO RICOCRUZ": null,
 "585 STEWART AVE., SUITE 416 GARDEN CITY NY UNITED STATES TE 5479878": null,
 "8877 GANDER CREEK DRIVE MIAMISBURG OH UNITED STATES TE 865": null,
 "99 SEAVIEW BOULEVARD PORT WASHINGTON, NY 11050, U.S.A. PORT WASHINGTON NY UNITED STATES": null,
 "11050, NY, USA": {
  "lat": 40.8352,
  "lon": -73.6955404,
  "display": "11050, Village of Baxter Estates, Town of North Hempstead, Nassau County, New York, United States",
  "city": "Village of Baxter Estates",
  "state": "New York",
  "country": "US"
 },
 "820 4TH AVENUE BROOKLYN, NEWYORK,USA 11232": null,
 "11232, USA": {
  "lat": 40.6542388,
  "lon": -74.002235,
  "display": "11232, Brooklyn, Kings County, New York, United States",
  "city": "New York",
  "state": "New York",
  "country": "US"
 },
 "3324 NW MARINE DRIVE TROUTDALE OREGON CITY OR 97060 US": null,
 "97060, OR, USA": {
  "lat": 45.5271661,
  "lon": -122.3922692,
  "display": "97060, Sunrise, Troutdale, Multnomah County, Oregon, United States",
  "city": "Troutdale",
  "state": "Oregon",
  "country": "US"
 },
 "U.S.CO.,LTD. ADD:1000 LAKES DRIVE,SUITE 415 WEST COVINA,CA 91790": null,
 "91790, CA, USA": {
  "lat": 34.067411,
  "lon": -117.9374285,
  "display": "91790, West Covina, Los Angeles County, California, United States",
  "city": "West Covina",
  "state": "California",
  "country": "US"
 },
 "265 POSTAVE STEN WESTBURY NY 11590": null,
 "11590, NY, USA": {
  "lat": 40.7543246,
  "lon": -73.5741579,
  "display": "11590, Town of North Hempstead, Nassau County, New York, United States",
  "city": "",
  "state": "New York",
  "country": "US"
 },
 "2049 E JOYCE BLVD,SUITE 200 FAYETTEVILLE AR UNITED STATES 72703": null,
 "72703, USA": {
  "lat": 36.1008235,
  "lon": -94.1303988,
  "display": "72703, Fayetteville, Washington County, Arkansas, United States",
  "city": "Fayetteville",
  "state": "Arkansas",
  "country": "US"
 },
 "631 N. CLUFF AVE. LODILODI CA 95240 UNITED STATES": null,
 "95240, CA, USA": {
  "lat": 38.1211903,
  "lon": -121.2671869,
  "display": "95240, Lodi, San Joaquin County, California, United States",
  "city": "Lodi",
  "state": "California",
  "country": "US"
 },
 "345 COURT STREET CORAOPOLIS PA UNITED STATES TE 2733400": null,
 "FLAT 1019B, 10/F, LIVEN HOUSE, NO.6 1-63 KINGYIP ST KWUNTONG HONGKONG ,KWUNTONG, ,HK": null,
 "15902A HALLIBURTON RD HACIENDA HEIGHTS CA UNITED STATES TE": null,
 "1900 E. GOLFROAD, SUITE# 1105 SCHA UMBURG,IL 60173 UNITED STATES O: FA X: ID@KERRYA": null,
 "60173, IL, USA": {
  "lat": 42.0464827,
  "lon": -88.0462684,
  "display": "60173, Schaumburg, Schaumburg Township, Cook County, Illinois, United States",
  "city": "Schaumburg",
  "state": "Illinois",
  "country": "US"
 },
 "29 WINDSOR POND ROADWEST WINDSOR, NJ 08550 USA": null,
 "08550, NJ, USA": {
  "lat": 40.2903077,
  "lon": -74.6101237,
  "display": "08550, West Windsor, Mercer County, New Jersey, United States",
  "city": "West Windsor",
  "state": "New Jersey",
  "country": "US"
 },
 "455, W. VICTORIA ST. COMPTON CA 902 20 U.S.A": null,
 "11200 EAST 210 HIGHWAY KANSAS CITY, MOLAKE FOREST IL 60045 US": null,
 "60045, IL, USA": {
  "lat": 42.2321403,
  "lon": -87.8479263,
  "display": "60045, Lake Forest, Lake County, Illinois, United States",
  "city": "Lake Forest",
  "state": "Illinois",
  "country": "US"
 },
 "4505 NORTH POINT BLVD BALTIMORE MD 21230 ATT: MARQUITA HATCH": null,
 "21230, MD, USA": {
  "lat": 39.2713346,
  "lon": -76.6228549,
  "display": "21230, Baltimore, Maryland, United States",
  "city": "Baltimore",
  "state": "Maryland",
  "country": "US"
 },
 "2424 EDENBORN AVE., SUITE 550,METAIRIE, LA 70001, USA": null,
 "70001, LA, USA": {
  "lat": 29.9852805,
  "lon": -90.1685565,
  "display": "70001, Metairie, Jefferson Parish, Louisiana, United States",
  "city": "Metairie",
  "state": "Louisiana",
  "country": "US"
 },
 "243 WOODBINE STREET, PLANT NO 1 HIGHPOINT NC 27261 UNITED STATES": null,
 "27261, NC, USA": {
  "lat": 35.9746721,
  "lon": -80.0004436,
  "display": "27261, High Point, Guilford County, North Carolina, United States",
  "city": "High Point",
  "state": "North Carolina",
  "country": "US"
 },
 "7300 WESTOWN PKWY STE 230 WESTDES MOINES, IA 50266 USA": null,
 "50266, IA, USA": {
  "lat": 41.5800774,
  "lon": -93.7886436,
  "display": "50266, West Des Moines, Polk County, Iowa, United States",
  "city": "West Des Moines",
  "state": "Iowa",
  "country": "US"
 },
 "SUMMIT 44, 90 EL SHAMALY STREET P.O.BOXNO. 400 401, EL TAGAMOAA ELTE KHAMES NEW CAIRO-118350, EGYPT": null,
 "TH STREET, SUITE 215 JAMAICA, NY X119 TE": null,
 "5723 ROUTE 22 MILLERTON NY 12546 US": null,
 "12546, NY, USA": {
  "lat": 41.957507,
  "lon": -73.5242132,
  "display": "12546, Town of North East, Dutchess County, New York, United States",
  "city": "",
  "state": "New York",
  "country": "US"
 },
 "6405 SHELDON ROAD TAMPA FL UNITED STATES 33615": null,
 "33615, USA": {
  "lat": 28.0088122,
  "lon": -82.5741378,
  "display": "33615, Town \"n\" Country, Hillsborough County, Florida, United States",
  "city": "Town \"n\" Country",
  "state": "Florida",
  "country": "US"
 },
 "1530 NW 98TH CT 100 DORAL FL TE": null,
 "125 TOWNPARK DRIVE SUITE 300,KENNE SAW,GEORGIA 30144,US": null,
 "30144, USA": {
  "lat": 34.0352452,
  "lon": -84.5944988,
  "display": "30144, Cobb County, Georgia, United States",
  "city": "",
  "state": "Georgia",
  "country": "US"
 },
 "2975 WESTCHESTER AVE PURCHASE, NY 10577 USA": null,
 "10577, NY, USA": {
  "lat": 41.0372008,
  "lon": -73.7187951,
  "display": "10577, Town/Village of Harrison, Westchester County, New York, United States",
  "city": "Town/Village of Harrison",
  "state": "New York",
  "country": "US"
 },
 "270 TRACE COLONY PARKDR STE BRIDGE LAND, MS 39157,BRIDGELAND, MS, ,US": null,
 "39157, MS, USA": {
  "lat": 32.4224163,
  "lon": -90.1340847,
  "display": "39157, Ridgeland, Madison County, Mississippi, United States",
  "city": "Ridgeland",
  "state": "Mississippi",
  "country": "US"
 },
 "12955 W AIRPORT BLVD SUGAR LAND TXUS": null,
 "12955, USA": {
  "lat": 44.7826507,
  "lon": -73.9749404,
  "display": "12955, Town of Ellenburg, Clinton County, New York, United States",
  "city": "Town of Ellenburg",
  "state": "New York",
  "country": "US"
 },
 "108 WILMOT ROADDEERFIELD IL,DEERFIE LD,DEERFIELD 60015,US": null,
 "60015, USA": {
  "lat": 42.1671848,
  "lon": -87.8580053,
  "display": "60015, Deerfield, Lake County, Illinois, United States",
  "city": "Deerfield",
  "state": "Illinois",
  "country": "US"
 },
 "1801 VOLVO CARS DRIVE RIDGEVILLE SC 29472 UNITED STATES TE 4699640": null,
 "29472, SC, USA": {
  "lat": 33.0784303,
  "lon": -80.3159187,
  "display": "29472, Dorchester County, South Carolina, United States",
  "city": "",
  "state": "South Carolina",
  "country": "US"
 },
 "405 E SANTA CLARA STREET 91006 ARCADIA CA UNITED STATES TE 4838336": null,
 "91006, USA": {
  "lat": 34.1339552,
  "lon": -118.0275127,
  "display": "91006, Arcadia, Los Angeles County, California, United States",
  "city": "Arcadia",
  "state": "California",
  "country": "US"
 },
 "2455 FEATHERSTONE RD AUBURN HILLS MIUS TE": null,
 "175-01 ROCKAWAY BLVD. SUITE 205, JAMAICA NY LIMXX": null,
 "BLDG. 1 GABRIEL INDUSTRIAL- COMPLEX RD 1, ROSARIO CAVITE CAVITE FCL TE": null,
 "243 WOODLAND DRIVE LINCROFT, NJ 07738": null,
 "07738, NJ, USA": {
  "lat": 40.3350858,
  "lon": -74.1174298,
  "display": "07738, Middletown Township, Monmouth County, New Jersey, United States",
  "city": "Middletown Township",
  "state": "New Jersey",
  "country": "US"
 },
 "1530 NW 98TH CTSTE 100 DORAL FL 33172 UNITED STATES": null,
 "33172, FL, USA": {
  "lat": 25.785049,
  "lon": -80.3632212,
  "display": "33172, Doral, Miami-Dade County, Florida, United States",
  "city": "",
  "state": "Florida",
  "country": "US"
 },
 "19302 S. LAUREL PARK RD.RANCHO DOM INGUEZ, CA 90220 T= F = JINGFANG EMAIL=": null,
 "90220, CA, USA": {
  "lat": 33.8853558,
  "lon": -118.2384186,
  "display": "90220, Compton, Los Angeles County, California, United States",
  "city": "Compton",
  "state": "California",
  "country": "US"
 },
 "200 CONTINENTAL DR SUITE 401 RM 411 NEWARK DELAWARE 19713": null,
 "19713, USA": {
  "lat": 39.6602621,
  "lon": -75.7363167,
  "display": "19713, New Castle County, Delaware, United States",
  "city": "",
  "state": "Delaware",
  "country": "US"
 },
 "120 PENMARC DRIVE, SUITE RALEIGH USA": null,
 "434 KEARNY AVE,SUITE 236 KEARNY,NJ": null,
 "SUITE KATELLA AVENUE LOS ALAMITOS CA 90720 UNITED STATES TE 8271668": null,
 "90720, CA, USA": {
  "lat": 33.7936844,
  "lon": -118.0732195,
  "display": "90720, Orange County, California, United States",
  "city": "",
  "state": "California",
  "country": "US"
 },
 "132 FAIRGROUNDS ROAD WEST KINGSTON, RI KINGSTON RITE 02892": null,
 "02892, USA": {
  "lat": 41.4936752,
  "lon": -71.5857927,
  "display": "02892, South Kingstown, South County, Rhode Island, United States",
  "city": "South Kingstown",
  "state": "Rhode Island",
  "country": "US"
 },
 "398 LEMON CREEK DRIVE, SUITEF WALN UTCA 91789 US": null,
 "91789, USA": {
  "lat": 34.0202478,
  "lon": -117.8692653,
  "display": "91789, Walnut, Los Angeles County, California, United States",
  "city": "Walnut",
  "state": "California",
  "country": "US"
 },
 "CORPORATION 2727 PACES FERRY RDSE STE 2-1425. GA 30339. DAVILATEL": null,
 "30339, GA, USA": {
  "lat": 33.8881133,
  "lon": -84.4638655,
  "display": "30339, Cobb County, Georgia, United States",
  "city": "",
  "state": "Georgia",
  "country": "US"
 },
 "1400 HIGHWAY 101 SOUTH (ASSEMBLY HALL NORTH) GREER TE SOUTH CAROLINA": null,
 "# GORDON WAY RICHMOND BCV 6W 1M2 CA": null,
 "MAG SPECIALTIES INC ADDRESS: 3801 E FLORIDA AVE, SUITE LAREDO,TXUS": null,
 "3 CORPORATE DR LAKE ZURICH ILUS": null,
 "1207 EDENRD YORKPA 17402 US": null,
 "17402, USA": {
  "lat": 39.9516312,
  "lon": -76.6741365,
  "display": "17402, York Township, York County, Pennsylvania, United States",
  "city": "York Township",
  "state": "Pennsylvania",
  "country": "US"
 },
 "POLIGONO IBAIONDO, 31 N GUIPUZCOA 20120 ES": null,
 "20120, USA": {
  "lat": 38.8525058,
  "lon": -77.4526761,
  "display": "20120, Fairfax County, Virginia, United States",
  "city": "",
  "state": "Virginia",
  "country": "US"
 },
 "629 MOUNT CARMEL RD BYHALIA MS 38611 US": null,
 "38611, MS, USA": {
  "lat": 34.8857055,
  "lon": -89.6843603,
  "display": "38611, Byhalia, Marshall County, Mississippi, United States",
  "city": "Byhalia",
  "state": "Mississippi",
  "country": "US"
 },
 "701 HANOVER DRIVE # 208, GRAPEVINE, TX 76051": null,
 "76051, TX, USA": {
  "lat": 32.9365006,
  "lon": -97.0856402,
  "display": "76051, Grapevine, Tarrant County, Texas, United States",
  "city": "Grapevine",
  "state": "Texas",
  "country": "US"
 },
 "331 WALDRON RD. STE 500 LA VERGNET N 37086 US": null,
 "37086, USA": {
  "lat": 36.0141649,
  "lon": -86.5656675,
  "display": "37086, La Vergne, Rutherford County, Middle Tennessee, Tennessee, United States",
  "city": "La Vergne",
  "state": "Tennessee",
  "country": "US"
 },
 "ADDRESS 6600 S MELVINA AVE, BEDFORD PARK IL, 60638, - USA": null,
 "60638, USA": {
  "lat": 41.7877651,
  "lon": -87.7663441,
  "display": "60638, Garfield Ridge, Chicago, Lake Township, Cook County, Illinois, United States",
  "city": "Chicago",
  "state": "Illinois",
  "country": "US"
 },
 "5584 MTVIEW RDSTE 200 ANTIOCH, TN 37013 USASTICS.COM 37013 TE T: F:": null,
 "37013, TN, USA": {
  "lat": 36.062271,
  "lon": -86.6483852,
  "display": "37013, Nashville, Davidson County, Middle Tennessee, Tennessee, United States",
  "city": "Nashville",
  "state": "Tennessee",
  "country": "US"
 },
 "245 FOUNDERY LANE CAMDEN MEMPHIS, SHELBY, TENNESSEE, UNITED STATEST ELEX:": null,
 "MEMPHIS, TN, USA": {
  "lat": 35.1460249,
  "lon": -90.0517638,
  "display": "Memphis, Shelby County, West Tennessee, Tennessee, United States",
  "city": "Memphis",
  "state": "Tennessee",
  "country": "US"
 },
 "1190 AVDES-CANADIENS DE MONTREAL, MONTREAL QC, H3B 0E OR": null,
 "155 SECOND STREET SUITE 207JERSEY C ITY, NJ 07302, USA,JERSEY CITY,NJ 07302,US": null,
 "07302, NJ, USA": {
  "lat": 40.7206589,
  "lon": -74.0459038,
  "display": "07302, Jersey City, Hudson County, New Jersey, United States",
  "city": "Jersey City",
  "state": "New Jersey",
  "country": "US"
 },
 "10 CHEVIGNY STREET SAINT ALBERT CATE": null,
 "1975 LINDEN BLVD,SUITE 300 ELMONT,N ELMONT NY 11003 UNITED STATES": null,
 "11003, NY, USA": {
  "lat": 40.6996636,
  "lon": -73.7048876,
  "display": "11003, Town of Hempstead, Nassau County, New York, United States",
  "city": "",
  "state": "New York",
  "country": "US"
 },
 "IN AMMINISTRAZIONE STRAORDINARIA - CONUNICO AZION VIA FABIO FILZI, 8 MILANO IT": null,
 "P.O. BOX 190, MT. MORRIS NY 14510 US": null,
 "14510, NY, USA": {
  "lat": 42.7137742,
  "lon": -77.8760346,
  "display": "14510, Village of Mount Morris, Town of Mount Morris, Livingston County, New York, United States",
  "city": "Village of Mount Morris",
  "state": "New York",
  "country": "US"
 },
 "16700 VALLEY VIEW AVE. SUITE 150 LA MIRADA, CA 90638 P: F:": null,
 "90638, CA, USA": {
  "lat": 33.9050078,
  "lon": -118.0160792,
  "display": "90638, La Mirada, Los Angeles County, California, United States",
  "city": "La Mirada",
  "state": "California",
  "country": "US"
 },
 "350 NORTHERN BLVD STE ALBANY, NY 12204": null,
 "12204, NY, USA": {
  "lat": 42.6830534,
  "lon": -73.7363518,
  "display": "12204, Village of Menands, Town of Colonie, Albany County, New York, United States",
  "city": "Town of Colonie",
  "state": "New York",
  "country": "US"
 },
 "3900 GABRIELLE LN, #6407 AURORA IL 60598 UNITED STATES": null,
 "60598, IL, USA": {
  "lat": 41.7696941,
  "lon": -88.2184799,
  "display": "60598, Aurora, Aurora Township, Kane County, Illinois, United States",
  "city": "Aurora",
  "state": "Illinois",
  "country": "US"
 },
 "1010 NORTHERN BLVD, SUITE# 340 GREAT NECK, NY, 11021": null,
 "11021, USA": {
  "lat": 40.7868316,
  "lon": -73.7270479,
  "display": "11021, Village of Great Neck Plaza, Town of North Hempstead, Nassau County, New York, United States",
  "city": "Village of Great Neck Plaza",
  "state": "New York",
  "country": "US"
 },
 "15 ENGLE STREET, SUITE 104 ENGLEWOOD 7631 US": null,
 "3823 MISSION OAKS BLVD. STE. A CAMARILLO,CA 93012, USA": null,
 "93012, CA, USA": {
  "lat": 34.1862844,
  "lon": -119.0240086,
  "display": "93012, Ventura County, California, United States",
  "city": "",
  "state": "California",
  "country": "US"
 },
 "N56 W16665 RIDGEWOOD DR. MENOMONEE FALLS, WI 53051 TE": null,
 "53051, WI, USA": {
  "lat": 43.1497364,
  "lon": -88.1122164,
  "display": "53051, Menomonee Falls, Waukesha County, Wisconsin, United States",
  "city": "Menomonee Falls",
  "state": "Wisconsin",
  "country": "US"
 },
 "1 RUEANDRE RAUSCH ZI REMY SARREGUEMINES 57200 FR": null,
 "57200, USA": {
  "lat": 37.8745363,
  "lon": -122.2688003,
  "display": "Shattuck Avenue & Delaware Street, Shattuck Avenue, Gourmet Ghetto, Berkeley, Alameda County, California, 94709, United States",
  "city": "Berkeley",
  "state": "California",
  "country": "US"
 },
 "RODOVIA PRESIDENTE CASTELO BRANCO, JARDIM MARIA CRISTINA - BARUERI - S": null,
 "20 SOUTHWOODS PARKWAY, SUITE 500 ATLANTA, GAGA 30354 US": null,
 "30354, USA": {
  "lat": 33.6658453,
  "lon": -84.3933615,
  "display": "30354, Atlanta, Fulton County, Georgia, United States",
  "city": "Atlanta",
  "state": "Georgia",
  "country": "US"
 },
 "SUMITOMO CORPORATION OF AMERICASCHI CAGO OFFICE9500 W. BRYNMAWR AVENUE , SUITE 400ROSEMONT, IL 60018 U": null,
 "60018, IL, USA": {
  "lat": 42.005827,
  "lon": -87.885791,
  "display": "60018, Rosemont, Leyden Township, Cook County, Illinois, United States",
  "city": "Rosemont",
  "state": "Illinois",
  "country": "US"
 },
 "3301 NW 150 TH STREET OKLAHOMA CITY OK 73134 US": null,
 "73134, OK, USA": {
  "lat": 35.6149418,
  "lon": -97.5622432,
  "display": "73134, Oklahoma City, Oklahoma County, Oklahoma, United States",
  "city": "Oklahoma City",
  "state": "Oklahoma",
  "country": "US"
 },
 "70 MANSELL COURT SUITE 210, ROSWELL , GA ROSWELL GA 30076 US": null,
 "30076, GA, USA": {
  "lat": 34.0286904,
  "lon": -84.3172607,
  "display": "30076, Roswell, Fulton County, Georgia, United States",
  "city": "Roswell",
  "state": "Georgia",
  "country": "US"
 },
 "550 KING STREET SUITE 200, CHARLEST ON SC 29403, UNITED STATES 29403 TE T: F:": null,
 "29403, SC, USA": {
  "lat": 32.7987952,
  "lon": -79.9486908,
  "display": "29403, Charleston, Charleston County, South Carolina, United States",
  "city": "Charleston",
  "state": "South Carolina",
  "country": "US"
 },
 "250 INTERNATIONAL TRADE PKWY, SAVANNAH, GA 31407 USA - CUSTOMSANATOLIATILE.COM": null,
 "31407, GA, USA": {
  "lat": 32.1859582,
  "lon": -81.2367822,
  "display": "31407, Savannah, Chatham County, Georgia, United States",
  "city": "Savannah",
  "state": "Georgia",
  "country": "US"
 },
 "900 HEMLOCK RD MORGANTOWN PA 19543 USTE": null,
 "19543, PA, USA": {
  "lat": 40.1569247,
  "lon": -75.8938009,
  "display": "19543, Caernarvon Township, Berks County, Pennsylvania, United States",
  "city": "Caernarvon Township",
  "state": "Pennsylvania",
  "country": "US"
 },
 "401 RIVERPORT DRIVE LEETSDALE, ALL EGHENY, PENNSYLVANIA, UNITED STATES 15056": null,
 "15056, USA": {
  "lat": 40.5641823,
  "lon": -80.2085975,
  "display": "15056, Leetsdale, Allegheny County, Pennsylvania, United States",
  "city": "Leetsdale",
  "state": "Pennsylvania",
  "country": "US"
 },
 "2001 PROENERGY BLVD SEDALIA MO 65301": null,
 "65301, MO, USA": {
  "lat": 38.7018958,
  "lon": -93.2346692,
  "display": "65301, Sedalia, Pettis County, Missouri, United States",
  "city": "Sedalia",
  "state": "Missouri",
  "country": "US"
 },
 "131 CROSSLAKE PARK DRIVE, SUITE 203 MOORESVILLE,NC": null,
 "463, JOHNNY MERCER BLVD, B7 #294 SAVANNAH, GA 31410 UNITED STATES": null,
 "31410, GA, USA": {
  "lat": 32.0199676,
  "lon": -80.9785278,
  "display": "31410, Chatham County, Georgia, United States",
  "city": "",
  "state": "Georgia",
  "country": "US"
 },
 "14700 EAST NELSON AVE, CITYOF INDUSTRY, CA 91744 (USA) DOC@B VL-USA.COM": null,
 "91744, CA, USA": {
  "lat": 34.0316959,
  "lon": -117.9432447,
  "display": "91744, La Puente, Los Angeles County, California, United States",
  "city": "La Puente",
  "state": "California",
  "country": "US"
 },
 "1221 NORTH MITTEL BOULEVARD WOODD ALE, ILLINOIS, 60191 U.S.A. KEVIN KOSAKA CHISEAIMP@am. kwe.com T= F=": null,
 "60191, USA": {
  "lat": 41.9689967,
  "lon": -87.9766798,
  "display": "60191, Wood Dale, Addison Township, DuPage County, Illinois, United States",
  "city": "Wood Dale",
  "state": "Illinois",
  "country": "US"
 },
 "1140 EAST SANDHILL AVE. CARSON CA 9 0746 US": null,
 "3820 CESSNA DRIVE RICHMOND BC V7B 0 A2 CA": null,
 "2555 DOLLARD AVE, BUILDING 3-3,LASALLE,QUEBEC H8N3A9,CA": null,
 "250 INTERNATIONAL TRADE PKWY SAVANNAH, GA 31407 USA": null,
 "10 LANGELOTH PLANT DRIVE LANGELOTH, PA 15054": null,
 "15054, PA, USA": {
  "lat": 40.3632211,
  "lon": -80.4077276,
  "display": "15054, Smith Township, Washington County, Pennsylvania, United States",
  "city": "Smith Township",
  "state": "Pennsylvania",
  "country": "US"
 },
 "LLC 10 LANGELOTH PLANT DRIVE LANGELOTH ,PA 15054 USA": null,
 "475 PALMYRITA AVENUE RIVERSIDE CA 9 2507 U.S.A": null,
 "378 GROSBLVD SUITE 3 HERKIMER, NY 13350, USA": null,
 "13350, NY, USA": {
  "lat": 43.032471,
  "lon": -74.986039,
  "display": "13350, Village of Herkimer, Town of Herkimer, Herkimer County, New York, United States",
  "city": "Village of Herkimer",
  "state": "New York",
  "country": "US"
 },
 "8333 NW 53 RDST STE 450 DORAL FL 33166 UNITED STATES": null,
 "33166, FL, USA": {
  "lat": 25.8228792,
  "lon": -80.3047503,
  "display": "33166, Miami Springs, Miami-Dade County, Florida, United States",
  "city": "",
  "state": "Florida",
  "country": "US"
 },
 "1 SIAM CEMENT ROAD BANGKOK 10800 T H": null,
 "10800, USA": {
  "lat": 47.7126496,
  "lon": -122.2818729,
  "display": "Sand Point Way NE & NE 115th St, Sand Point Way Northeast, Lavilla, Matthews Beach, Lake City, Seattle, King County, Washington, 98165, United States",
  "city": "Seattle",
  "state": "Washington",
  "country": "US"
 },
 "21800 S. CICERO AVENUE MATTESON IL 60443 US": null,
 "60443, IL, USA": {
  "lat": 41.5072744,
  "lon": -87.7320966,
  "display": "60443, Matteson, Rich Township, Cook County, Illinois, United States",
  "city": "Matteson",
  "state": "Illinois",
  "country": "US"
 },
 "500 NORTH FRANKLIN TURNPIKE, SUITE RAMSEY, NJ": null
}